[
  {
    "jobId": "6161697e8d8eecf791115271",
    "positionName": "consequat id",
    "companyName": "consectetur ex excepteur",
    "durationDay": 964,
    "durationDayText": "",
    "imageUrl": "https://picsum.photos/200",
    "distance": 4.41,
    "latitude": 36.235316,
    "longitude": 36.875448,
    "cityName": "İstanbul",
    "townName": "anim Mahallesi"
  },
  {
    "jobId": "6161697ef288836f836425f1",
    "positionName": "qui pariatur",
    "companyName": "nostrud proident mollit",
    "durationDay": 802,
    "durationDayText": "",
    "imageUrl": "https://picsum.photos/200",
    "distance": 6.95,
    "latitude": 37.03812,
    "longitude": 44.586087,
    "cityName": "İstanbul",
    "townName": "ipsum Mahallesi"
  },
  {
    "jobId": "6161697e442f0e262c8f0f19",
    "positionName": "consequat nulla",
    "companyName": "ullamco consequat ut",
    "durationDay": 124,
    "durationDayText": "",
    "imageUrl": "https://picsum.photos/200",
    "distance": 13.93,
    "latitude": 38.737985,
    "longitude": 39.762943,
    "cityName": "İstanbul",
    "townName": "dolore Mahallesi"
  },
  {
    "jobId": "6161697e08cee06a64b6d51a",
    "positionName": "ex magna",
    "companyName": "nisi aliquip laborum",
    "durationDay": 279,
    "durationDayText": "",
    "imageUrl": "https://picsum.photos/200",
    "distance": 4.74,
    "latitude": 36.89091,
    "longitude": 38.003796,
    "cityName": "İstanbul",
    "townName": "id Mahallesi"
  },
  {
    "jobId": "6161697e933a10899d09ca2f",
    "positionName": "non reprehenderit",
    "companyName": "laboris anim officia",
    "durationDay": 30,
    "durationDayText": "",
    "imageUrl": "https://picsum.photos/200",
    "distance": 10.34,
    "latitude": 39.464522,
    "longitude": 43.778876,
    "cityName": "İstanbul",
    "townName": "excepteur Mahallesi"
  },
  {
    "jobId": "6161697e31f75e9c63b2576b",
    "positionName": "dolor labore",
    "companyName": "mollit anim sint",
    "durationDay": 199,
    "durationDayText": "",
    "imageUrl": "https://picsum.photos/200",
    "distance": 4.74,
    "latitude": 41.742261,
    "longitude": 36.640269,
    "cityName": "İstanbul",
    "townName": "qui Mahallesi"
  },
  {
    "jobId": "6161697ef84698a45a952145",
    "positionName": "dolor aliqua",
    "companyName": "incididunt irure est",
    "durationDay": 434,
    "durationDayText": "",
    "imageUrl": "https://picsum.photos/200",
    "distance": 6.78,
    "latitude": 39.148916,
    "longitude": 41.144284,
    "cityName": "İstanbul",
    "townName": "non Mahallesi"
  }
]
